[
  {
    "id": "mw-01-main-dam",
    "project_id": "diamer-basha",
    "name": "MW-01 - Main Dam",
    "phase": "Phase-1 (Dam Part)",
    "discipline": "Civil",
    "lat": 35.6264,
    "lng": 74.6189,
    "status_pct": 74.0,
    "status_label": "Live",
    "alerts": 5,
    "image": "/images/contracts/blueprint.jpg"
  },
  {
    "id": "mw-02-rb-powerhouse",
    "project_id": "diamer-basha",
    "name": "MW-02 - RB Powerhouse",
    "phase": "Phase-1 (Dam Part)",
    "discipline": "Mechanical",
    "lat": 35.6248,
    "lng": 74.6236,
    "status_pct": 62.0,
    "status_label": "In Progress",
    "alerts": 3,
    "image": "/images/contracts/blueprint.jpg"
  },
  {
    "id": "mw-02-lb-powerhouse",
    "project_id": "diamer-basha",
    "name": "MW-02 - LB Powerhouse",
    "phase": "Phase-1 (Dam Part)",
    "discipline": "Mechanical",
    "lat": 35.6229,
    "lng": 74.6202,
    "status_pct": 54.0,
    "status_label": "Bidding",
    "alerts": 3,
    "image": "/images/contracts/blueprint.jpg"
  },
  {
    "id": "em-01-lb",
    "project_id": "diamer-basha",
    "name": "EM-01 - LB",
    "phase": "Phase-1 (Dam Part)",
    "discipline": "Electrical",
    "lat": 35.6215,
    "lng": 74.6207,
    "status_pct": 58.0,
    "status_label": "Bidding",
    "alerts": 2,
    "image": "/images/contracts/blueprint.jpg"
  },
  {
    "id": "em-01-rb",
    "project_id": "diamer-basha",
    "name": "EM-01 - RB",
    "phase": "Phase-1 (Dam Part)",
    "discipline": "Electrical",
    "lat": 35.6239,
    "lng": 74.6244,
    "status_pct": 52.0,
    "status_label": "In Progress",
    "alerts": 2,
    "image": "/images/contracts/blueprint.jpg"
  },
  {
    "id": "em-02-lb",
    "project_id": "diamer-basha",
    "name": "EM-02 - LB",
    "phase": "Phase-1 (Dam Part)",
    "discipline": "Electrical",
    "lat": 35.6226,
    "lng": 74.6185,
    "status_pct": 48.0,
    "status_label": "Pre-PQ",
    "alerts": 3,
    "image": "/images/contracts/blueprint.jpg"
  },
  {
    "id": "em-02-rb",
    "project_id": "diamer-basha",
    "name": "EM-02 - RB",
    "phase": "Phase-1 (Dam Part)",
    "discipline": "Electrical",
    "lat": 35.6234,
    "lng": 74.6279,
    "status_pct": 45.0,
    "status_label": "Pre-PQ",
    "alerts": 4,
    "image": "/images/contracts/blueprint.jpg"
  },
  {
    "id": "hm-01",
    "project_id": "diamer-basha",
    "name": "HM-1",
    "phase": "Phase-2 (Power Generation)",
    "discipline": "Hydro-Mechanical",
    "lat": 35.6258,
    "lng": 74.6138,
    "status_pct": 20.0,
    "status_label": "Construction",
    "alerts": 1,
    "image": "/images/contracts/blueprint.jpg"
  },
  {
    "id": "hm-02",
    "project_id": "diamer-basha",
    "name": "HM-2 - LB",
    "phase": "Phase-2 (Power Generation)",
    "discipline": "Hydro-Mechanical",
    "lat": 35.6268,
    "lng": 74.6109,
    "status_pct": 12.0,
    "status_label": "Pre-PQ",
    "alerts": 2,
    "image": "/images/contracts/blueprint.jpg"
  },
  {
    "id": "hm-02-rb",
    "project_id": "diamer-basha",
    "name": "HM-2 - RB",
    "phase": "Phase-2 (Power Generation)",
    "discipline": "Hydro-Mechanical",
    "lat": 35.6273,
    "lng": 74.6146,
    "status_pct": 10.0,
    "status_label": "Pre-PQ",
    "alerts": 2,
    "image": "/images/contracts/blueprint.jpg"
  }
]
